{
  "source": "2026 CBOs VA.xlsx",
  "generated_at": "2026-03-30T23:15:04.171Z",
  "entries": [
    {
      "id": "ext:cbo-2026:1",
      "name": "Adams County State's Attorney's Office",
      "program_type": "Prosecution",
      "address": "521 Vermont St, Quincy, IL 62301",
      "phone": "217-277-2225",
      "website": "https://www.adamscountyil.gov/government/departments/state-s-attorney",
      "lat": 39.9345858,
      "lng": -91.4079417,
      "geocode_ok": true
    },
    {
      "id": "ext:cbo-2026:2",
      "name": "Advocacy Network for Children",
      "program_type": "Children's Advocacy Center",
      "address": "1420 Harrison St, Quincy, IL 62301",
      "phone": "217-223-2272",
      "website": "https://advonet.org",
      "lat": 39.9138119,
      "lng": -91.3764273,
      "geocode_ok": true
    },
    {
      "id": "ext:cbo-2026:3",
      "name": "Advocacy Network for Children",
      "program_type": "Court Appointed Special Advocates",
      "address": "1420 Harrison St, Quincy, IL 62301",
      "phone": "217-223-2272",
      "website": "https://advonet.org",
      "lat": 39.9138119,
      "lng": -91.3764273,
      "geocode_ok": true
    },
    {
      "id": "ext:cbo-2026:4",
      "name": "Advocate Condell Medical Center",
      "program_type": "Community Violence",
      "address": "801 S Milwaukee Ave, Libertyville, IL 60048",
      "phone": "847-362-2900",
      "website": "https://www.advocatehealth.com/condell",
      "lat": 42.2732057,
      "lng": -87.95563,
      "geocode_ok": true
    },
    {
      "id": "ext:cbo-2026:5",
      "name": "Advocate Christ Medical Center",
      "program_type": "Community Violence",
      "address": "4440 W 95th St, Oak Lawn, IL 60453",
      "phone": "708-684-8000",
      "website": "https://www.advocatehealth.com/cmc",
      "lat": 41.7235705,
      "lng": -87.732089,
      "geocode_ok": true
    },
    {
      "id": "ext:cbo-2026:6",
      "name": "All Our Children's Advocacy Center",
      "program_type": "Children's Advocacy Center",
      "address": "8651 S 79th Ave, Justice, IL 60458",
      "phone": "Not publicly listed",
      "website": "https://www.aocac.org",
      "lat": null,
      "lng": null,
      "geocode_ok": false
    },
    {
      "id": "ext:cbo-2026:7",
      "name": "Alliance Against Intoxicated Motorists",
      "program_type": "DUI",
      "address": "870 E Higgins Rd, Suite 131, Schaumburg, IL 60173",
      "phone": "847-240-0027",
      "website": "https://www.aaim1.org",
      "lat": null,
      "lng": null,
      "geocode_ok": false
    },
    {
      "id": "ext:cbo-2026:8",
      "name": "Alternatives (for the Older Adult, Inc.)",
      "program_type": "Elder Abuse",
      "address": "3800 Avenue of the Cities, Suite 101, Moline, IL 61265",
      "phone": "309-277-0167",
      "website": "https://alternativesforyou.org",
      "lat": null,
      "lng": null,
      "geocode_ok": false
    },
    {
      "id": "ext:cbo-2026:9",
      "name": "Amy Schulz Child Advocacy Center, Inc.",
      "program_type": "Children's Advocacy Center",
      "address": "500 Fairfield Rd, Mt. Vernon, IL 62864",
      "phone": "618-244-2100",
      "website": "https://www.amycenter.org",
      "lat": 38.31947,
      "lng": -88.883299,
      "geocode_ok": true
    },
    {
      "id": "ext:cbo-2026:10",
      "name": "Anew: Building Beyond Violence & Abuse",
      "program_type": "Domestic Violence",
      "address": "18137 Harwood Ave, Homewood, IL 60430",
      "phone": "708-794-2140",
      "website": "https://anewdv.org",
      "lat": 41.5600486,
      "lng": -87.6682007,
      "geocode_ok": true
    },
    {
      "id": "ext:cbo-2026:11",
      "name": "Ann & Robert H. Lurie Children's Hospital of Chicago",
      "program_type": "Violence Prevention",
      "address": "225 E Chicago Ave, Chicago, IL 60611",
      "phone": "312-227-4000",
      "website": "https://www.luriechildrens.org",
      "lat": 41.8962676,
      "lng": -87.6218705,
      "geocode_ok": true
    },
    {
      "id": "ext:cbo-2026:12",
      "name": "Apna Ghar, Inc.",
      "program_type": "Domestic Violence",
      "address": "4350 N Broadway St, Chicago, IL 60613",
      "phone": "773-334-4663",
      "website": "https://www.apnaghar.org",
      "lat": 41.9716054,
      "lng": -87.6597317,
      "geocode_ok": true
    },
    {
      "id": "ext:cbo-2026:13",
      "name": "April House",
      "program_type": "Children's Advocacy Center",
      "address": "501 19th Ave, Rock Falls, IL 61071",
      "phone": "815-626-7333",
      "website": "https://www.aprilhouse.org",
      "lat": null,
      "lng": null,
      "geocode_ok": false
    },
    {
      "id": "ext:cbo-2026:14",
      "name": "Arab American Family Services",
      "program_type": "Domestic Violence",
      "address": "6530 W 79th St, Burbank, IL 60459",
      "phone": "708-599-2237",
      "website": "https://aafsil.org",
      "lat": null,
      "lng": null,
      "geocode_ok": false
    },
    {
      "id": "ext:cbo-2026:15",
      "name": "Arab American Family Services",
      "program_type": "Domestic Violence and Sexual Assault",
      "address": "6530 W 79th St, Burbank, IL 60459",
      "phone": "708-599-2237",
      "website": "https://aafsil.org",
      "lat": null,
      "lng": null,
      "geocode_ok": false
    },
    {
      "id": "ext:cbo-2026:16",
      "name": "Ascend Justice",
      "program_type": "Domestic Violence",
      "address": "205 W Wacker Dr, Suite 1900, Chicago, IL 60606",
      "phone": "312-971-5932",
      "website": "https://www.ascendjustice.org",
      "lat": null,
      "lng": null,
      "geocode_ok": false
    },
    {
      "id": "ext:cbo-2026:17",
      "name": "Association for Individual Development",
      "program_type": "Community Violence",
      "address": "1135 Bowes Rd, Elgin, IL 60123",
      "phone": "847-931-2290",
      "website": "https://www.aidcares.org",
      "lat": 42.0070489,
      "lng": -88.3353687,
      "geocode_ok": true
    },
    {
      "id": "ext:cbo-2026:18",
      "name": "BUILD, Inc.",
      "program_type": "Community Violence",
      "address": "5100 W Harrison St, Chicago, IL 60644",
      "phone": "773-227-2880",
      "website": "https://www.buildchicago.org",
      "lat": 41.8733221,
      "lng": -87.7544433,
      "geocode_ok": true
    },
    {
      "id": "ext:cbo-2026:19",
      "name": "Between Friends",
      "program_type": "Domestic Violence",
      "address": "PO Box 608548, Chicago, IL 60660",
      "phone": "773-274-5232",
      "website": "https://www.betweenfriendschicago.org",
      "lat": null,
      "lng": null,
      "geocode_ok": false
    },
    {
      "id": "ext:cbo-2026:20",
      "name": "Bond County State's Attorney Office",
      "program_type": "Prosecution",
      "address": "200 W College Ave, Greenville, IL 62246",
      "phone": "618-664-3208",
      "website": null,
      "lat": 38.892644,
      "lng": -89.412689,
      "geocode_ok": true
    },
    {
      "id": "ext:cbo-2026:21",
      "name": "Boone County State's Attorney's Office",
      "program_type": "Prosecution",
      "address": "601 N Main St, Belvidere, IL 61008",
      "phone": "815-544-2803",
      "website": "https://www.boonecountyil.gov",
      "lat": 42.2649122,
      "lng": -88.8447545,
      "geocode_ok": true
    },
    {
      "id": "ext:cbo-2026:22",
      "name": "Braveheart Children's Advocacy Center",
      "program_type": "Children's Advocacy Center",
      "address": "1604 2nd Ave, Rock Island, IL 61201",
      "phone": "309-797-2662",
      "website": "https://www.braveheartcac.org",
      "lat": 41.5110367,
      "lng": -90.5711165,
      "geocode_ok": true
    },
    {
      "id": "ext:cbo-2026:23",
      "name": "Brown County State's Attorney's Office",
      "program_type": "Prosecution",
      "address": "200 Court St, Mount Sterling, IL 62353",
      "phone": "217-773-2713",
      "website": null,
      "lat": 39.986815,
      "lng": -90.763641,
      "geocode_ok": true
    },
    {
      "id": "ext:cbo-2026:24",
      "name": "Bureau County State's Attorney's Office",
      "program_type": "Prosecution",
      "address": "700 S Main St, Princeton, IL 61356",
      "phone": "815-875-2851",
      "website": "https://www.bureaucounty-il.gov",
      "lat": 41.3671042,
      "lng": -89.4660479,
      "geocode_ok": true
    },
    {
      "id": "ext:cbo-2026:25",
      "name": "CAC of Winnebago County",
      "program_type": "Children's Advocacy Center",
      "address": "2727 N Main St, Rockford, IL 61103",
      "phone": "815-319-6195",
      "website": "https://www.cacwinnebago.com",
      "lat": 42.300543,
      "lng": -89.0769727,
      "geocode_ok": true
    },
    {
      "id": "ext:cbo-2026:26",
      "name": "Cairo Women's Shelter, Inc.",
      "program_type": "Domestic Violence",
      "address": "PO Box 306, Cairo, IL 62914",
      "phone": "618-734-4357",
      "website": null,
      "lat": null,
      "lng": null,
      "geocode_ok": false
    },
    {
      "id": "ext:cbo-2026:27",
      "name": "Cairo Women's Shelter, Inc.",
      "program_type": "Domestic Violence",
      "address": "PO Box 306, Cairo, IL 62914",
      "phone": "618-734-4357",
      "website": null,
      "lat": null,
      "lng": null,
      "geocode_ok": false
    },
    {
      "id": "ext:cbo-2026:28",
      "name": "Calhoun County State's Attorney",
      "program_type": "Prosecution",
      "address": "301 S County Rd, Hardin, IL 62047",
      "phone": "618-576-9700",
      "website": null,
      "lat": null,
      "lng": null,
      "geocode_ok": false
    },
    {
      "id": "ext:cbo-2026:29",
      "name": "Carroll County State's Attorney",
      "program_type": "Prosecution",
      "address": "301 N Main St, Mt Carroll, IL 61053",
      "phone": "815-244-0240",
      "website": null,
      "lat": 42.1006469,
      "lng": -89.9782724,
      "geocode_ok": true
    },
    {
      "id": "ext:cbo-2026:30",
      "name": "Casa Central Social Services Corporation",
      "program_type": "Violence Prevention",
      "address": "1343 N California Ave, Chicago, IL 60622",
      "phone": "773-645-2300",
      "website": "https://www.casacentral.org",
      "lat": 41.9060476,
      "lng": -87.6965566,
      "geocode_ok": true
    },
    {
      "id": "ext:cbo-2026:31",
      "name": "CASA DeKalb County, Inc.",
      "program_type": "Court Appointed Special Advocates",
      "address": "308 W State St, Suite 301, Sycamore, IL 60178",
      "phone": "815-895-2052",
      "website": "https://www.casadekalb.org",
      "lat": null,
      "lng": null,
      "geocode_ok": false
    },
    {
      "id": "ext:cbo-2026:32",
      "name": "CASA Kane County",
      "program_type": "Court Appointed Special Advocates",
      "address": "100 S Third St, Suite 460, Geneva, IL 60134",
      "phone": "630-232-4484",
      "website": "https://www.casakanecounty.org",
      "lat": null,
      "lng": null,
      "geocode_ok": false
    },
    {
      "id": "ext:cbo-2026:33",
      "name": "CASA Lake County",
      "program_type": "Court Appointed Special Advocates",
      "address": "18 N County St, Waukegan, IL 60085",
      "phone": "847-383-6260",
      "website": "https://www.casalakecounty.com",
      "lat": 42.3603647,
      "lng": -87.8330853,
      "geocode_ok": true
    },
    {
      "id": "ext:cbo-2026:34",
      "name": "CASA of DuPage County",
      "program_type": "Court Appointed Special Advocates",
      "address": "505 N County Farm Rd, Wheaton, IL 60187",
      "phone": "630-407-0548",
      "website": "https://www.dupagecasa.org",
      "lat": 41.8716694,
      "lng": -88.1452296,
      "geocode_ok": true
    },
    {
      "id": "ext:cbo-2026:35",
      "name": "CASA of East Central Illinois",
      "program_type": "Court Appointed Special Advocates",
      "address": "422 S Water St, Decatur, IL 62523",
      "phone": "217-428-6616",
      "website": "https://www.casaeci.org",
      "lat": 39.8399258,
      "lng": -88.9544127,
      "geocode_ok": true
    },
    {
      "id": "ext:cbo-2026:36",
      "name": "CASA for Kids (Franklin & Hamilton Counties)",
      "program_type": "Court Appointed Special Advocates",
      "address": "110 E Main St, Benton, IL 62812",
      "phone": "618-435-9800",
      "website": null,
      "lat": 37.9967285,
      "lng": -88.9198289,
      "geocode_ok": true
    },
    {
      "id": "ext:cbo-2026:37",
      "name": "CASA for Kids (Franklin & Hamilton Counties)",
      "program_type": "Court Appointed Special Advocates",
      "address": "110 E Main St, Benton, IL 62812",
      "phone": "618-435-9800",
      "website": null,
      "lat": 37.9967285,
      "lng": -88.9198289,
      "geocode_ok": true
    },
    {
      "id": "ext:cbo-2026:38",
      "name": "CASA of Jefferson County",
      "program_type": "Court Appointed Special Advocates",
      "address": "107 E Washington St, Mt Vernon, IL 62864",
      "phone": "618-244-1555",
      "website": null,
      "lat": null,
      "lng": null,
      "geocode_ok": false
    },
    {
      "id": "ext:cbo-2026:39",
      "name": "CASA of Jersey & Greene Counties",
      "program_type": "Court Appointed Special Advocates",
      "address": "201 W Pearl St, Jerseyville, IL 62052",
      "phone": "618-639-3044",
      "website": "https://www.casajerseycounty.org",
      "lat": 39.119026,
      "lng": -90.328718,
      "geocode_ok": true
    },
    {
      "id": "ext:cbo-2026:40",
      "name": "CASA of McHenry County",
      "program_type": "Court Appointed Special Advocates",
      "address": "110 S Johnson St, Woodstock, IL 60098",
      "phone": "815-363-5920",
      "website": "https://www.casamchenrycounty.org",
      "lat": 42.3144907,
      "lng": -88.4481617,
      "geocode_ok": true
    },
    {
      "id": "ext:cbo-2026:41",
      "name": "CASA of McLean and Logan Counties",
      "program_type": "Court Appointed Special Advocates",
      "address": "502 S Morris Ave, Bloomington, IL 61701",
      "phone": "309-828-9222",
      "website": "https://www.casamcleanlogan.org",
      "lat": 40.4748378,
      "lng": -89.0063569,
      "geocode_ok": true
    },
    {
      "id": "ext:cbo-2026:42",
      "name": "CASA of River Valley",
      "program_type": "Court Appointed Special Advocates",
      "address": "816 S Chicago St, Joliet, IL 60436",
      "phone": "815-730-7072",
      "website": "https://www.casaforchildren.org",
      "lat": 41.5126719,
      "lng": -88.0823558,
      "geocode_ok": true
    },
    {
      "id": "ext:cbo-2026:43",
      "name": "CASA of Sangamon County",
      "program_type": "Court Appointed Special Advocates",
      "address": "1100 S Fifth St, Springfield, IL 62703",
      "phone": "217-753-2800",
      "website": "https://www.casasangamon.org",
      "lat": null,
      "lng": null,
      "geocode_ok": false
    },
    {
      "id": "ext:cbo-2026:44",
      "name": "CASA of Southern Illinois",
      "program_type": "Court Appointed Special Advocates",
      "address": "604 E Main St, Marion, IL 62959",
      "phone": "618-998-3100",
      "website": "https://www.casaofsouthernillinois.org",
      "lat": 37.7308816,
      "lng": -88.9222904,
      "geocode_ok": true
    },
    {
      "id": "ext:cbo-2026:45",
      "name": "CASA of Southwestern Illinois",
      "program_type": "Court Appointed Special Advocates",
      "address": "14 S 3rd St, Belleville, IL 62220",
      "phone": "618-234-4278",
      "website": "https://www.swicasa.org",
      "lat": 38.5134068,
      "lng": -89.988131,
      "geocode_ok": true
    },
    {
      "id": "ext:cbo-2026:46",
      "name": "CASA of Vermilion & Edgar Counties",
      "program_type": "Court Appointed Special Advocates",
      "address": "201 N Vermilion St, Danville, IL 61832",
      "phone": "217-443-1774",
      "website": null,
      "lat": 40.1286585,
      "lng": -87.6296265,
      "geocode_ok": true
    },
    {
      "id": "ext:cbo-2026:47",
      "name": "CASA of West Central Illinois",
      "program_type": "Court Appointed Special Advocates",
      "address": "457 E South St, Galesburg, IL 61401",
      "phone": "309-344-4321",
      "website": "https://www.casaofwestcentralillinois.org",
      "lat": 40.9438816,
      "lng": -90.3632029,
      "geocode_ok": true
    },
    {
      "id": "ext:cbo-2026:48",
      "name": "CASA-15th Judicial Circuit",
      "program_type": "Court Appointed Special Advocates",
      "address": "101 W 2nd St, Dixon, IL 61021",
      "phone": "815-288-1905",
      "website": null,
      "lat": 41.842688,
      "lng": -89.4825,
      "geocode_ok": true
    },
    {
      "id": "ext:cbo-2026:49",
      "name": "Cass County State's Attorney",
      "program_type": "Prosecution",
      "address": "100 E Springfield St, Virginia, IL 62691",
      "phone": "217-452-7217",
      "website": null,
      "lat": 39.951008,
      "lng": -90.210769,
      "geocode_ok": true
    },
    {
      "id": "ext:cbo-2026:50",
      "name": "Catholic Bishop of Chicago – St Sabina (Purpose Over Pain)",
      "program_type": "Homicide Survivor",
      "address": "7800 S Racine Ave, Chicago, IL 60620",
      "phone": "773-224-7300",
      "website": "https://www.purposeoverpain.org",
      "lat": 41.7519971,
      "lng": -87.654078,
      "geocode_ok": true
    },
    {
      "id": "ext:cbo-2026:51",
      "name": "Center for Prevention of Abuse",
      "program_type": "Domestic Violence",
      "address": "720 W Joan Ct, Peoria, IL 61614",
      "phone": "309-691-0551",
      "website": "https://www.centerforpreventionofabuse.org",
      "lat": 40.7439633,
      "lng": -89.6037087,
      "geocode_ok": true
    },
    {
      "id": "ext:cbo-2026:52",
      "name": "Center for Prevention of Abuse",
      "program_type": "Elder Abuse",
      "address": "720 W Joan Ct, Peoria, IL 61614",
      "phone": "309-691-0551",
      "website": "https://www.centerforpreventionofabuse.org",
      "lat": 40.7439633,
      "lng": -89.6037087,
      "geocode_ok": true
    },
    {
      "id": "ext:cbo-2026:53",
      "name": "Center on Halsted",
      "program_type": "Community Violence",
      "address": "3656 N Halsted St, Chicago, IL 60613",
      "phone": "773-472-6469",
      "website": "https://www.centeronhalsted.org",
      "lat": 41.9488597,
      "lng": -87.6499439,
      "geocode_ok": true
    },
    {
      "id": "ext:cbo-2026:54",
      "name": "Centro Romero",
      "program_type": "Domestic Violence",
      "address": "6216 N Clark St, Chicago, IL 60660",
      "phone": "773-508-5300",
      "website": "https://centroromero.org",
      "lat": 41.9948257,
      "lng": -87.6702736,
      "geocode_ok": true
    },
    {
      "id": "ext:cbo-2026:55",
      "name": "Champaign County CASA",
      "program_type": "Court Appointed Special Advocates",
      "address": "201 W Springfield Ave, Suite 503, Champaign, IL 61820",
      "phone": "217-384-9065",
      "website": "https://www.casamchenrycounty.org",
      "lat": null,
      "lng": null,
      "geocode_ok": false
    },
    {
      "id": "ext:cbo-2026:56",
      "name": "Champaign County Children's Advocacy Center",
      "program_type": "Children's Advocacy Center",
      "address": "201 W Kenyon Rd, Champaign, IL 61820",
      "phone": "217-384-1266",
      "website": null,
      "lat": 40.1335883,
      "lng": -88.2462666,
      "geocode_ok": true
    },
    {
      "id": "ext:cbo-2026:57",
      "name": "Champaign County State's Attorney's Office",
      "program_type": "Prosecution",
      "address": "101 E Main St, Urbana, IL 61801",
      "phone": "217-384-3733",
      "website": "https://www.co.champaign.il.us",
      "lat": 40.1120265,
      "lng": -88.2064946,
      "geocode_ok": true
    },
    {
      "id": "ext:cbo-2026:58",
      "name": "Chicago Alliance Against Sexual Exploitation",
      "program_type": "Legal Services",
      "address": "3047 N Lincoln Ave, Suite 400, Chicago, IL 60657",
      "phone": "773-244-2230",
      "website": "https://www.caase.org",
      "lat": null,
      "lng": null,
      "geocode_ok": false
    },
    {
      "id": "ext:cbo-2026:59",
      "name": "Chicago Children's Advocacy Center",
      "program_type": "Children's Advocacy Center",
      "address": "1240 S Damen Ave, Chicago, IL 60608",
      "phone": "312-492-3700",
      "website": "https://www.chicagocac.org",
      "lat": 41.8652896,
      "lng": -87.676906,
      "geocode_ok": true
    },
    {
      "id": "ext:cbo-2026:60",
      "name": "Chicago Cultural Performing Arts and Media Alliance",
      "program_type": "Violence Prevention",
      "address": "4701 S King Dr, Chicago, IL 60653",
      "phone": "Not publicly listed",
      "website": null,
      "lat": 41.8092389,
      "lng": -87.6169565,
      "geocode_ok": true
    },
    {
      "id": "ext:cbo-2026:61",
      "name": "Chicago Survivors",
      "program_type": "Homicide Survivor",
      "address": "836 E 63rd St, Chicago, IL 60637",
      "phone": "773-783-4949",
      "website": "https://www.chicagosurvivors.org",
      "lat": 41.7805131,
      "lng": -87.6044714,
      "geocode_ok": true
    },
    {
      "id": "ext:cbo-2026:62",
      "name": "Child Advocacy Center of McHenry County",
      "program_type": "Children's Advocacy Center",
      "address": "3519 N Richmond Rd, Johnsburg, IL 60051",
      "phone": "815-344-6212",
      "website": "https://www.mchenrycac.org",
      "lat": 42.3700107,
      "lng": -88.2686109,
      "geocode_ok": true
    },
    {
      "id": "ext:cbo-2026:63",
      "name": "Child Network-CAC",
      "program_type": "Children's Advocacy Center",
      "address": "657 E Court St, Kankakee, IL 60901",
      "phone": "815-932-4482",
      "website": null,
      "lat": 41.1199468,
      "lng": -87.8573704,
      "geocode_ok": true
    },
    {
      "id": "ext:cbo-2026:64",
      "name": "Child Network-CASA",
      "program_type": "Court Appointed Special Advocates",
      "address": "657 E Court St, Kankakee, IL 60901",
      "phone": "815-932-4482",
      "website": null,
      "lat": 41.1199468,
      "lng": -87.8573704,
      "geocode_ok": true
    },
    {
      "id": "ext:cbo-2026:65",
      "name": "Children's Advocacy Center of East Central Illinois",
      "program_type": "Children's Advocacy Center",
      "address": "422 S Water St, Decatur, IL 62523",
      "phone": "217-428-6616",
      "website": "https://www.casaeci.org",
      "lat": 39.8399258,
      "lng": -88.9544127,
      "geocode_ok": true
    },
    {
      "id": "ext:cbo-2026:66",
      "name": "Children's Advocacy Center of North and Northwest Cook County",
      "program_type": "Children's Advocacy Center",
      "address": "6400 N Northwest Hwy, Chicago, IL 60631",
      "phone": "773-444-0200",
      "website": "https://www.caccook.org",
      "lat": 41.99699,
      "lng": -87.806999,
      "geocode_ok": true
    },
    {
      "id": "ext:cbo-2026:67",
      "name": "Children's Advocacy Centers of Illinois",
      "program_type": "Training and Technical Assistance",
      "address": "500 E Adams St, Suite 204, Springfield, IL 62701",
      "phone": "217-528-2224",
      "website": "https://www.childrensadvocacycentersofillinois.org",
      "lat": null,
      "lng": null,
      "geocode_ok": false
    },
    {
      "id": "ext:cbo-2026:68",
      "name": "Children's Legal Center",
      "program_type": "Legal Services",
      "address": "135 S LaSalle St, Suite 3200, Chicago, IL 60603",
      "phone": "312-332-2626",
      "website": "https://www.clclaw.org",
      "lat": null,
      "lng": null,
      "geocode_ok": false
    },
    {
      "id": "ext:cbo-2026:69",
      "name": "Children's Research Triangle",
      "program_type": "Therapy",
      "address": "70 E Lake St #1300, Chicago, IL 60601",
      "phone": "(312) 726-4011",
      "website": "https://childrensresearchtriangle.org/",
      "lat": null,
      "lng": null,
      "geocode_ok": false
    },
    {
      "id": "ext:cbo-2026:70",
      "name": "City of Rockford, Family Peace Center",
      "program_type": "Domestic Violence",
      "address": "779 N Main St, Rockford, IL 61103",
      "phone": "815-967-7842",
      "website": "https://www.familypeacecenter.org",
      "lat": 42.2774417,
      "lng": -89.0891324,
      "geocode_ok": true
    },
    {
      "id": "ext:cbo-2026:71",
      "name": "Clay County State's Attorney",
      "program_type": "Prosecution",
      "address": "111 E North St, Louisville, IL 62858",
      "phone": "618-665-3051",
      "website": null,
      "lat": null,
      "lng": null,
      "geocode_ok": false
    },
    {
      "id": "ext:cbo-2026:72",
      "name": "Clove Alliance",
      "program_type": "Sexual Assault",
      "address": "1440 W Court St, Kankakee, IL 60901",
      "phone": "815-932-7273",
      "website": "https://www.clovealliance.org",
      "lat": 41.1212521,
      "lng": -87.8744967,
      "geocode_ok": true
    },
    {
      "id": "ext:cbo-2026:73",
      "name": "Coles County State's Attorney's Office",
      "program_type": "Prosecution",
      "address": "651 Jackson Ave, Charleston, IL 61920",
      "phone": "217-348-0521",
      "website": null,
      "lat": 39.4946117,
      "lng": -88.1750463,
      "geocode_ok": true
    },
    {
      "id": "ext:cbo-2026:74",
      "name": "Community Crisis Center",
      "program_type": "Domestic Violence and Sexual Assault",
      "address": "37 S Geneva Rd, Elgin, IL 60123",
      "phone": "847-697-2380",
      "website": "https://www.communitycrisiscenter.org",
      "lat": null,
      "lng": null,
      "geocode_ok": false
    },
    {
      "id": "ext:cbo-2026:75",
      "name": "Community Research Resource Information and Services for Seniors Inc.",
      "program_type": "Elder Abuse",
      "address": "1005 N Walnut St, Danville, IL 61832",
      "phone": "217-443-2999",
      "website": null,
      "lat": 40.1406055,
      "lng": -87.631453,
      "geocode_ok": true
    },
    {
      "id": "ext:cbo-2026:76",
      "name": "Connections for Abused Women and Their Children",
      "program_type": "Domestic Violence",
      "address": "PO Box 191, Chicago, IL 60690",
      "phone": "773-278-4566",
      "website": "https://www.cawc.org",
      "lat": null,
      "lng": null,
      "geocode_ok": false
    },
    {
      "id": "ext:cbo-2026:77",
      "name": "Cook County Health and Hospitals System (CCH)",
      "program_type": "Violence Prevention",
      "address": "1950 W Polk St, Chicago, IL 60612",
      "phone": "312-864-6000",
      "website": "https://cookcountyhealth.org",
      "lat": 41.8717038,
      "lng": -87.6754992,
      "geocode_ok": true
    },
    {
      "id": "ext:cbo-2026:78",
      "name": "Cook County State's Attorney's Office",
      "program_type": "Prosecution",
      "address": "50 W Washington St, Chicago, IL 60602",
      "phone": "312-603-1880",
      "website": "https://www.cookcountystatesattorney.org",
      "lat": 41.8840869,
      "lng": -87.6302049,
      "geocode_ok": true
    },
    {
      "id": "ext:cbo-2026:79",
      "name": "Cook County State's Attorney's Office",
      "program_type": "Prosecution",
      "address": "50 W Washington St, Chicago, IL 60602",
      "phone": "312-603-1880",
      "website": "https://www.cookcountystatesattorney.org",
      "lat": 41.8840869,
      "lng": -87.6302049,
      "geocode_ok": true
    },
    {
      "id": "ext:cbo-2026:80",
      "name": "Cook County State's Attorney's Office",
      "program_type": "Homicide Survivor",
      "address": "50 W Washington St, Chicago, IL 60602",
      "phone": "312-603-1880",
      "website": "https://www.cookcountystatesattorney.org",
      "lat": 41.8840869,
      "lng": -87.6302049,
      "geocode_ok": true
    },
    {
      "id": "ext:cbo-2026:81",
      "name": "Court Appointed Special Advocates of Cook County",
      "program_type": "Court Appointed Special Advocates",
      "address": "2245 W Ogden Ave, Chicago, IL 60612",
      "phone": "312-433-4300",
      "website": "https://www.cookcountycasa.org",
      "lat": 41.8676131,
      "lng": -87.6810403,
      "geocode_ok": true
    },
    {
      "id": "ext:cbo-2026:82",
      "name": "Crawford County State's Attorney",
      "program_type": "Prosecution",
      "address": "1 Court St, Robinson, IL 62454",
      "phone": "618-544-3505",
      "website": null,
      "lat": 39.0053889,
      "lng": -87.7398283,
      "geocode_ok": true
    },
    {
      "id": "ext:cbo-2026:83",
      "name": "Crisis Center for South Suburbia",
      "program_type": "Domestic Violence",
      "address": "1240 23rd Ave, Chicago Heights, IL 60411",
      "phone": "708-754-4357",
      "website": "https://www.crisisctr.org",
      "lat": null,
      "lng": null,
      "geocode_ok": false
    },
    {
      "id": "ext:cbo-2026:84",
      "name": "Crisis Center Foundation",
      "program_type": "Domestic Violence",
      "address": "217 E Morgan St, Jacksonville, IL 62650",
      "phone": "217-243-4357",
      "website": null,
      "lat": 39.7335442,
      "lng": -90.2279507,
      "geocode_ok": true
    },
    {
      "id": "ext:cbo-2026:85",
      "name": "DeKalb County State's Attorney",
      "program_type": "Prosecution",
      "address": "133 W State St, Sycamore, IL 60178",
      "phone": "815-895-7000",
      "website": "https://dekalbcounty.org",
      "lat": 41.9886536,
      "lng": -88.6850334,
      "geocode_ok": true
    },
    {
      "id": "ext:cbo-2026:86",
      "name": "Douglas County State's Attorney's Office",
      "program_type": "Prosecution",
      "address": "401 S Center St, Tuscola, IL 61953",
      "phone": "217-253-2913",
      "website": null,
      "lat": 39.795992,
      "lng": -88.285937,
      "geocode_ok": true
    },
    {
      "id": "ext:cbo-2026:87",
      "name": "Dove, Inc.",
      "program_type": "Domestic Violence",
      "address": "112 E North St, Decatur, IL 62523",
      "phone": "217-428-6616",
      "website": "https://www.doveinc.org",
      "lat": 39.8447478,
      "lng": -88.9556334,
      "geocode_ok": true
    },
    {
      "id": "ext:cbo-2026:88",
      "name": "DuPage County State's Attorney's Office",
      "program_type": "Prosecution",
      "address": "505 N County Farm Rd, Wheaton, IL 60187",
      "phone": "630-407-8000",
      "website": "https://www.dupagecounty.gov",
      "lat": 41.8716694,
      "lng": -88.1452296,
      "geocode_ok": true
    },
    {
      "id": "ext:cbo-2026:89",
      "name": "Edwards County State's Attorney",
      "program_type": "Prosecution",
      "address": "50 E Main St, Albion, IL 62806",
      "phone": "618-445-2111",
      "website": null,
      "lat": 38.377072,
      "lng": -88.056716,
      "geocode_ok": true
    },
    {
      "id": "ext:cbo-2026:90",
      "name": "Effingham County State's Attorney's Office",
      "program_type": "Prosecution",
      "address": "120 W Jefferson Ave, Effingham, IL 62401",
      "phone": "217-342-4065",
      "website": null,
      "lat": 39.1214596,
      "lng": -88.5428112,
      "geocode_ok": true
    },
    {
      "id": "ext:cbo-2026:91",
      "name": "Empowering Women",
      "program_type": "Domestic Violence",
      "address": "4600 S King Dr, Chicago, IL 60653",
      "phone": "773-373-4400",
      "website": null,
      "lat": 41.8017775,
      "lng": -87.6161882,
      "geocode_ok": true
    },
    {
      "id": "ext:cbo-2026:92",
      "name": "Family Rescue",
      "program_type": "Domestic Violence",
      "address": "200 W Adams St, Suite 1810, Chicago, IL 60606",
      "phone": "312-325-7120",
      "website": "https://www.familyrescueinc.org",
      "lat": null,
      "lng": null,
      "geocode_ok": false
    },
    {
      "id": "ext:cbo-2026:93",
      "name": "Family Resources",
      "program_type": "Domestic Violence and Sexual Assault",
      "address": "1411 Brady St, Davenport, IA 52803",
      "phone": "563-326-6431",
      "website": "https://www.famres.org",
      "lat": 41.5344203,
      "lng": -90.5739464,
      "geocode_ok": true
    },
    {
      "id": "ext:cbo-2026:94",
      "name": "Family Resources, Inc.",
      "program_type": "Community Violence",
      "address": "1411 Brady St, Davenport, IA 52803",
      "phone": "563-326-6431",
      "website": "https://www.famres.org",
      "lat": 41.5344203,
      "lng": -90.5739464,
      "geocode_ok": true
    },
    {
      "id": "ext:cbo-2026:95",
      "name": "Family Service Agency’s Children’s Advocacy Center of DeKalb County",
      "program_type": "Children's Advocacy Center",
      "address": "1325 Sycamore Rd, DeKalb, IL 60115",
      "phone": "815-758-8616",
      "website": "https://www.fsadekalbcounty.org",
      "lat": 41.9432072,
      "lng": -88.7378566,
      "geocode_ok": true
    },
    {
      "id": "ext:cbo-2026:96",
      "name": "Fayette County State's Attorney's Office",
      "program_type": "Prosecution",
      "address": "221 S 7th St, Vandalia, IL 62471",
      "phone": "618-283-1130",
      "website": null,
      "lat": 38.9600811,
      "lng": -89.0994119,
      "geocode_ok": true
    },
    {
      "id": "ext:cbo-2026:97",
      "name": "Ford County State's Attorney Office",
      "program_type": "Prosecution",
      "address": "200 W State St, Paxton, IL 60957",
      "phone": "217-379-9420",
      "website": null,
      "lat": 40.462365,
      "lng": -88.098749,
      "geocode_ok": true
    },
    {
      "id": "ext:cbo-2026:98",
      "name": "Franklin County State's Attorney's Office",
      "program_type": "Prosecution",
      "address": "100 Public Sq, Benton, IL 62812",
      "phone": "618-435-9800",
      "website": null,
      "lat": 37.9970773,
      "lng": -88.9208141,
      "geocode_ok": true
    },
    {
      "id": "ext:cbo-2026:99",
      "name": "Franklin-Williamson Child Advocacy Center",
      "program_type": "Children's Advocacy Center",
      "address": "10400 Terminal Dr, Marion, IL 62959",
      "phone": "618-993-3100",
      "website": "https://www.fwcac.org",
      "lat": null,
      "lng": null,
      "geocode_ok": false
    },
    {
      "id": "ext:cbo-2026:100",
      "name": "Freedom House",
      "program_type": "Domestic Violence and Sexual Assault",
      "address": "440 Elm Pl, Princeton, IL 61356",
      "phone": "815-872-0087",
      "website": "https://www.freedomhouseillinois.org",
      "lat": 41.3841904,
      "lng": -89.4587638,
      "geocode_ok": true
    },
    {
      "id": "ext:cbo-2026:101",
      "name": "Fulton-Mason Crisis Service",
      "program_type": "Domestic Violence",
      "address": "1321 E Main St, Havana, IL 62644",
      "phone": "309-543-5449",
      "website": null,
      "lat": 40.3000778,
      "lng": -90.0498162,
      "geocode_ok": true
    },
    {
      "id": "ext:cbo-2026:102",
      "name": "Greater Chicago Legal Clinic",
      "program_type": "Legal Services",
      "address": "17 N State St, Suite 1710, Chicago, IL 60602",
      "phone": "312-726-2938",
      "website": "https://www.gclclaw.org",
      "lat": null,
      "lng": null,
      "geocode_ok": false
    },
    {
      "id": "ext:cbo-2026:103",
      "name": "Greene County State's Attorney",
      "program_type": "Prosecution",
      "address": "519 N Main St, Carrollton, IL 62016",
      "phone": "217-942-6996",
      "website": null,
      "lat": 39.3022324,
      "lng": -90.4085787,
      "geocode_ok": true
    },
    {
      "id": "ext:cbo-2026:104",
      "name": "Growing Strong Sexual Assault Center",
      "program_type": "Sexual Assault",
      "address": "302 N Water St, Decatur, IL 62523",
      "phone": "217-428-0770",
      "website": "https://www.growingstrongcenter.org",
      "lat": 39.8437166,
      "lng": -88.9543763,
      "geocode_ok": true
    },
    {
      "id": "ext:cbo-2026:105",
      "name": "Grundy County State's Attorney",
      "program_type": "Prosecution",
      "address": "111 E Washington St, Morris, IL 60450",
      "phone": "815-941-3256",
      "website": null,
      "lat": 41.357269,
      "lng": -88.4235178,
      "geocode_ok": true
    },
    {
      "id": "ext:cbo-2026:106",
      "name": "Guardian Angel Community Services",
      "program_type": "Sexual Assault",
      "address": "168 N Ottawa St, Joliet, IL 60432",
      "phone": "815-729-0930",
      "website": "https://www.gacsprograms.org",
      "lat": 41.5273805,
      "lng": -88.0829481,
      "geocode_ok": true
    },
    {
      "id": "ext:cbo-2026:107",
      "name": "Guardian Angel Community Services",
      "program_type": "Domestic Violence",
      "address": "168 N Ottawa St, Joliet, IL 60432",
      "phone": "815-729-0930",
      "website": "https://www.gacsprograms.org",
      "lat": 41.5273805,
      "lng": -88.0829481,
      "geocode_ok": true
    },
    {
      "id": "ext:cbo-2026:108",
      "name": "Hamilton County State's Attorney",
      "program_type": "Prosecution",
      "address": "100 S Jackson St, McLeansboro, IL 62859",
      "phone": "618-643-2737",
      "website": null,
      "lat": 38.093968,
      "lng": -88.535168,
      "geocode_ok": true
    },
    {
      "id": "ext:cbo-2026:109",
      "name": "HANA Center",
      "program_type": "Community Violence",
      "address": "4300 N California Ave, Chicago, IL 60618",
      "phone": "773-583-5501",
      "website": "https://www.hanacenter.org",
      "lat": 41.9597056,
      "lng": -87.6987756,
      "geocode_ok": true
    },
    {
      "id": "ext:cbo-2026:110",
      "name": "Hancock County State's Attorney Office",
      "program_type": "Prosecution",
      "address": "500 Main St, Carthage, IL 62321",
      "phone": "217-357-3312",
      "website": null,
      "lat": 40.413604,
      "lng": -91.13615,
      "geocode_ok": true
    },
    {
      "id": "ext:cbo-2026:111",
      "name": "Hanul Family Alliance",
      "program_type": "Elder Abuse",
      "address": "5008 N Kedzie Ave, Chicago, IL 60625",
      "phone": "773-478-8851",
      "website": "https://www.hanulusa.org",
      "lat": 41.9725793,
      "lng": -87.7088022,
      "geocode_ok": true
    },
    {
      "id": "ext:cbo-2026:112",
      "name": "Harbor House",
      "program_type": "Domestic Violence",
      "address": "512 N Schuyler Ave, Kankakee, IL 60901",
      "phone": "815-932-5800",
      "website": "https://www.harborhousekankakee.org",
      "lat": 41.1258056,
      "lng": -87.8627567,
      "geocode_ok": true
    },
    {
      "id": "ext:cbo-2026:113",
      "name": "Henderson County State's Attorney",
      "program_type": "Prosecution",
      "address": "307 Warren St, Oquawka, IL 61469",
      "phone": "309-867-2911",
      "website": null,
      "lat": 40.9354669,
      "lng": -90.9541941,
      "geocode_ok": true
    },
    {
      "id": "ext:cbo-2026:114",
      "name": "Henry County State's Attorney's Office",
      "program_type": "Prosecution",
      "address": "307 W Center St, Cambridge, IL 61238",
      "phone": "309-937-3572",
      "website": null,
      "lat": 41.3021304,
      "lng": -90.1971508,
      "geocode_ok": true
    },
    {
      "id": "ext:cbo-2026:115",
      "name": "HOPE of East Central Illinois",
      "program_type": "Domestic Violence",
      "address": "1649 Broadway Ave, Mattoon, IL 61938",
      "phone": "217-235-0258",
      "website": "https://www.hope-eci.org",
      "lat": 39.4825425,
      "lng": -88.374486,
      "geocode_ok": true
    },
    {
      "id": "ext:cbo-2026:116",
      "name": "HOPE of Ogle County",
      "program_type": "Domestic Violence",
      "address": "708 S 7th St, Oregon, IL 61061",
      "phone": "815-732-7338",
      "website": "https://www.hopeofoglecounty.org",
      "lat": 42.0070191,
      "lng": -89.3371245,
      "geocode_ok": true
    },
    {
      "id": "ext:cbo-2026:117",
      "name": "Howard Area Community Center",
      "program_type": "Domestic Violence",
      "address": "7648 N Paulina St, Chicago, IL 60626",
      "phone": "773-262-6622",
      "website": "https://www.howardarea.org",
      "lat": 42.0207875,
      "lng": -87.6734168,
      "geocode_ok": true
    },
    {
      "id": "ext:cbo-2026:118",
      "name": "Illinois Association Court Appointed Special Advocates",
      "program_type": "Training and Technical Assistance",
      "address": "217 E Monroe St, Suite 210, Springfield, IL 62701",
      "phone": "217-522-2666",
      "website": "https://www.illinoiscasa.org",
      "lat": null,
      "lng": null,
      "geocode_ok": false
    },
    {
      "id": "ext:cbo-2026:119",
      "name": "Illinois Coalition Against Domestic Violence",
      "program_type": "Domestic Violence",
      "address": "300 W Edwards St, Suite 201, Springfield, IL 62704",
      "phone": "217-789-2830",
      "website": "https://www.ilcadv.org",
      "lat": null,
      "lng": null,
      "geocode_ok": false
    },
    {
      "id": "ext:cbo-2026:120",
      "name": "Illinois Coalition Against Sexual Assault",
      "program_type": "Training and Technical Assistance",
      "address": "100 N 16th St, Springfield, IL 62703",
      "phone": "217-753-4117",
      "website": "https://icasa.org",
      "lat": 39.8018417,
      "lng": -89.6333681,
      "geocode_ok": true
    },
    {
      "id": "ext:cbo-2026:121",
      "name": "Illinois Prison Project",
      "program_type": "Legal Services",
      "address": "53 W Jackson Blvd, Suite 1542, Chicago, IL 60604",
      "phone": "312-324-4463",
      "website": "https://www.illinoisprisonproject.org",
      "lat": null,
      "lng": null,
      "geocode_ok": false
    },
    {
      "id": "ext:cbo-2026:122",
      "name": "Jackson County Sheriff's Office",
      "program_type": "Police Based",
      "address": "1001 Mulberry St, Murphysboro, IL 62966",
      "phone": "618-687-3822",
      "website": "https://jacksoncounty-il.gov",
      "lat": 37.7627955,
      "lng": -89.334992,
      "geocode_ok": true
    },
    {
      "id": "ext:cbo-2026:123",
      "name": "Jackson County State's Attorney",
      "program_type": "Prosecution",
      "address": "1001 Walnut St, Murphysboro, IL 62966",
      "phone": "618-687-7200",
      "website": null,
      "lat": 37.7643433,
      "lng": -89.3251415,
      "geocode_ok": true
    },
    {
      "id": "ext:cbo-2026:124",
      "name": "Jefferson County State's Attorney Office",
      "program_type": "Prosecution",
      "address": "100 S 10th St, Mt Vernon, IL 62864",
      "phone": "618-244-8025",
      "website": null,
      "lat": 38.317576,
      "lng": -88.903586,
      "geocode_ok": true
    },
    {
      "id": "ext:cbo-2026:125",
      "name": "Jersey County State's Attorney",
      "program_type": "Prosecution",
      "address": "201 W Pearl St, Jerseyville, IL 62052",
      "phone": "618-498-5571",
      "website": null,
      "lat": 39.119026,
      "lng": -90.328718,
      "geocode_ok": true
    },
    {
      "id": "ext:cbo-2026:126",
      "name": "Jo Daviess County State's Attorney's Office",
      "program_type": "Prosecution",
      "address": "330 N Bench St, Galena, IL 61036",
      "phone": "815-777-2329",
      "website": null,
      "lat": 42.4185103,
      "lng": -90.4259091,
      "geocode_ok": true
    },
    {
      "id": "ext:cbo-2026:127",
      "name": "Johnson County State's Attorney's Office",
      "program_type": "Prosecution",
      "address": "1 Courthouse Sq, Vienna, IL 62995",
      "phone": "618-658-9022",
      "website": null,
      "lat": null,
      "lng": null,
      "geocode_ok": false
    },
    {
      "id": "ext:cbo-2026:128",
      "name": "Kane County Child Advocacy Center",
      "program_type": "Children's Advocacy Center",
      "address": "12 N 1st St, Geneva, IL 60134",
      "phone": "630-208-5160",
      "website": "https://www.kanecountycac.org",
      "lat": 41.8877772,
      "lng": -88.3051785,
      "geocode_ok": true
    },
    {
      "id": "ext:cbo-2026:129",
      "name": "Kane County State's Attorney's Office",
      "program_type": "Prosecution",
      "address": "37W777 IL Route 38, St Charles, IL 60175",
      "phone": "630-232-3500",
      "website": "https://www.kanecountyil.gov",
      "lat": null,
      "lng": null,
      "geocode_ok": false
    },
    {
      "id": "ext:cbo-2026:130",
      "name": "KAN-WIN",
      "program_type": "Domestic Violence and Sexual Assault",
      "address": "4753 N Broadway St, Suite 632, Chicago, IL 60640",
      "phone": "773-583-0880",
      "website": "https://www.kanwin.org",
      "lat": null,
      "lng": null,
      "geocode_ok": false
    },
    {
      "id": "ext:cbo-2026:131",
      "name": "Kendall County State's Attorney's Office",
      "program_type": "Prosecution",
      "address": "807 W John St, Yorkville, IL 60560",
      "phone": "630-553-4111",
      "website": "https://www.kendallcountyil.gov",
      "lat": 41.6588751,
      "lng": -88.4766025,
      "geocode_ok": true
    },
    {
      "id": "ext:cbo-2026:132",
      "name": "Kids Above All",
      "program_type": "Homicide Survivor",
      "address": "8765 W Higgins Rd, Suite 450, Chicago, IL 60631",
      "phone": "773-867-5800",
      "website": "https://www.kidsaboveall.org",
      "lat": null,
      "lng": null,
      "geocode_ok": false
    },
    {
      "id": "ext:cbo-2026:133",
      "name": "KLEO Community Family Life Center",
      "program_type": "Violence Prevention",
      "address": "119 E 51st St, Chicago, IL 60615",
      "phone": "773-285-4600",
      "website": null,
      "lat": 41.8019221,
      "lng": -87.622394,
      "geocode_ok": true
    },
    {
      "id": "ext:cbo-2026:134",
      "name": "Knox County State's Attorney's Office",
      "program_type": "Prosecution",
      "address": "200 S Cherry St, Galesburg, IL 61401",
      "phone": "309-345-3880",
      "website": null,
      "lat": 40.9444898,
      "lng": -90.3704655,
      "geocode_ok": true
    },
    {
      "id": "ext:cbo-2026:135",
      "name": "La Rabida Children's Hospital",
      "program_type": "Children's Advocacy Center",
      "address": "6501 S Promontory Dr, Chicago, IL 60649",
      "phone": "773-363-6700",
      "website": "https://www.larabida.org",
      "lat": 41.7777004,
      "lng": -87.5718322,
      "geocode_ok": true
    },
    {
      "id": "ext:cbo-2026:136",
      "name": "Lake County Children's Advocacy Center",
      "program_type": "Children's Advocacy Center",
      "address": "18 N County St, Waukegan, IL 60085",
      "phone": "847-377-8370",
      "website": "https://www.lakecountyil.gov",
      "lat": 42.3603647,
      "lng": -87.8330853,
      "geocode_ok": true
    },
    {
      "id": "ext:cbo-2026:137",
      "name": "Lake County Crisis Center DBA A Safe Place",
      "program_type": "Domestic Violence and Sexual Assault",
      "address": "2710 17th St, Zion, IL 60099",
      "phone": "847-731-7165",
      "website": "https://www.asafeplaceforhelp.org",
      "lat": 42.4643356,
      "lng": -87.8492354,
      "geocode_ok": true
    },
    {
      "id": "ext:cbo-2026:138",
      "name": "Lake County State's Attorney's Office",
      "program_type": "Prosecution",
      "address": "18 N County St, Waukegan, IL 60085",
      "phone": "847-377-3000",
      "website": "https://www.lakecountyil.gov",
      "lat": 42.3603647,
      "lng": -87.8330853,
      "geocode_ok": true
    },
    {
      "id": "ext:cbo-2026:139",
      "name": "Land of Lincoln Legal Aid",
      "program_type": "Legal Services",
      "address": "8787 State St, Suite 201, East St Louis, IL 62203",
      "phone": "618-398-0958",
      "website": "https://lincolnlegal.org",
      "lat": null,
      "lng": null,
      "geocode_ok": false
    },
    {
      "id": "ext:cbo-2026:140",
      "name": "LaSalle County CASA Organization",
      "program_type": "Court Appointed Special Advocates",
      "address": "707 Etna Rd, Ottawa, IL 61350",
      "phone": "815-434-4200",
      "website": "https://www.casals.org",
      "lat": 41.3724107,
      "lng": -88.8265021,
      "geocode_ok": true
    },
    {
      "id": "ext:cbo-2026:141",
      "name": "LaSalle County Children's Advocacy Center",
      "program_type": "Children's Advocacy Center",
      "address": "707 Etna Rd, Ottawa, IL 61350",
      "phone": "815-434-4200",
      "website": null,
      "lat": 41.3724107,
      "lng": -88.8265021,
      "geocode_ok": true
    },
    {
      "id": "ext:cbo-2026:142",
      "name": "LaSalle County State's Attorney's Office",
      "program_type": "Prosecution",
      "address": "707 Etna Rd, Ottawa, IL 61350",
      "phone": "815-434-8340",
      "website": null,
      "lat": 41.3724107,
      "lng": -88.8265021,
      "geocode_ok": true
    },
    {
      "id": "ext:cbo-2026:143",
      "name": "Lawrence County State's Attorney's Office",
      "program_type": "Prosecution",
      "address": "1100 State St, Lawrenceville, IL 62439",
      "phone": "618-943-2346",
      "website": null,
      "lat": 38.729381,
      "lng": -87.68223,
      "geocode_ok": true
    },
    {
      "id": "ext:cbo-2026:144",
      "name": "Lee County State's Attorney's Office",
      "program_type": "Prosecution",
      "address": "309 S Galena Ave, Dixon, IL 61021",
      "phone": "815-284-5214",
      "website": null,
      "lat": 41.8415756,
      "lng": -89.481613,
      "geocode_ok": true
    },
    {
      "id": "ext:cbo-2026:145",
      "name": "Legal Aid Chicago",
      "program_type": "Legal Services",
      "address": "120 S LaSalle St, Suite 900, Chicago, IL 60603",
      "phone": "312-341-1070",
      "website": "https://www.legalaidchicago.org",
      "lat": null,
      "lng": null,
      "geocode_ok": false
    },
    {
      "id": "ext:cbo-2026:146",
      "name": "Legal Aid Society of Metropolitan Family Services",
      "program_type": "Legal Services",
      "address": "1 N Dearborn St, Suite 1000, Chicago, IL 60602",
      "phone": "312-986-4000",
      "website": "https://www.metrofamily.org",
      "lat": null,
      "lng": null,
      "geocode_ok": false
    },
    {
      "id": "ext:cbo-2026:147",
      "name": "Lifescape Community Services, Inc.",
      "program_type": "Elder Abuse",
      "address": "1050 W State St, Rockford, IL 61102",
      "phone": "815-963-1609",
      "website": "https://www.lifescapeservices.org",
      "lat": 42.2756495,
      "lng": -89.1062316,
      "geocode_ok": true
    },
    {
      "id": "ext:cbo-2026:148",
      "name": "Life-Span",
      "program_type": "Domestic Violence",
      "address": "70 E Lake St, Suite 720, Chicago, IL 60601",
      "phone": "312-408-1210",
      "website": "https://www.life-span.org",
      "lat": null,
      "lng": null,
      "geocode_ok": false
    },
    {
      "id": "ext:cbo-2026:149",
      "name": "Life-Span",
      "program_type": "Domestic Violence",
      "address": "70 E Lake St, Suite 720, Chicago, IL 60601",
      "phone": "312-408-1210",
      "website": "https://www.life-span.org",
      "lat": null,
      "lng": null,
      "geocode_ok": false
    },
    {
      "id": "ext:cbo-2026:150",
      "name": "Livingston County State's Attorney",
      "program_type": "Prosecution",
      "address": "112 W Madison St, Pontiac, IL 61764",
      "phone": "815-844-5164",
      "website": null,
      "lat": 40.8802251,
      "lng": -88.6288974,
      "geocode_ok": true
    },
    {
      "id": "ext:cbo-2026:151",
      "name": "Logan County State's Attorney",
      "program_type": "Prosecution",
      "address": "601 Broadway St, Lincoln, IL 62656",
      "phone": "217-732-4148",
      "website": null,
      "lat": 40.1460139,
      "lng": -89.3624646,
      "geocode_ok": true
    },
    {
      "id": "ext:cbo-2026:152",
      "name": "Macon County State's Attorney's Office",
      "program_type": "Prosecution",
      "address": "253 E Wood St, Decatur, IL 62523",
      "phone": "217-424-1400",
      "website": null,
      "lat": 39.8398907,
      "lng": -88.9537347,
      "geocode_ok": true
    },
    {
      "id": "ext:cbo-2026:153",
      "name": "Madison County Child Advocacy Center",
      "program_type": "Children's Advocacy Center",
      "address": "300 W Main St, Suite 200, Belleville, IL 62220",
      "phone": "618-296-5388",
      "website": "https://www.madisoncountycac.org",
      "lat": null,
      "lng": null,
      "geocode_ok": false
    },
    {
      "id": "ext:cbo-2026:154",
      "name": "Madison County State's Attorney's Office",
      "program_type": "Prosecution",
      "address": "157 N Main St, Edwardsville, IL 62025",
      "phone": "618-692-6280",
      "website": "https://www.madisoncountyil.gov",
      "lat": 38.8129325,
      "lng": -89.9581942,
      "geocode_ok": true
    },
    {
      "id": "ext:cbo-2026:155",
      "name": "Marion County State's Attorney's Office",
      "program_type": "Prosecution",
      "address": "100 E Main St, Salem, IL 62881",
      "phone": "618-548-3860",
      "website": null,
      "lat": 38.627162,
      "lng": -88.945507,
      "geocode_ok": true
    },
    {
      "id": "ext:cbo-2026:156",
      "name": "Marshall County State's Attorney's Office",
      "program_type": "Prosecution",
      "address": "122 N Prairie St, Lacon, IL 61540",
      "phone": "309-246-6401",
      "website": null,
      "lat": 41.024752,
      "lng": -89.4081186,
      "geocode_ok": true
    },
    {
      "id": "ext:cbo-2026:157",
      "name": "Mason County State's Attorney",
      "program_type": "Prosecution",
      "address": "125 N Plum St, Havana, IL 62644",
      "phone": "309-543-6610",
      "website": null,
      "lat": 40.3004477,
      "lng": -90.0621519,
      "geocode_ok": true
    },
    {
      "id": "ext:cbo-2026:158",
      "name": "Massac County State's Attorney's Office",
      "program_type": "Prosecution",
      "address": "1 Superman Sq, Metropolis, IL 62960",
      "phone": "618-524-5213",
      "website": null,
      "lat": 37.1521051,
      "lng": -88.7328341,
      "geocode_ok": true
    },
    {
      "id": "ext:cbo-2026:159",
      "name": "McDonough County State's Attorney's Office",
      "program_type": "Prosecution",
      "address": "1 Courthouse Sq, Macomb, IL 61455",
      "phone": "309-833-2474",
      "website": null,
      "lat": 40.4586982,
      "lng": -90.6709773,
      "geocode_ok": true
    },
    {
      "id": "ext:cbo-2026:160",
      "name": "McHenry County State's Attorney's Office",
      "program_type": "Prosecution",
      "address": "2200 N Seminary Ave, Woodstock, IL 60098",
      "phone": "815-334-4547",
      "website": "https://www.mchenrycountyil.gov",
      "lat": 42.3409678,
      "lng": -88.4405239,
      "geocode_ok": true
    },
    {
      "id": "ext:cbo-2026:161",
      "name": "McLean CAC",
      "program_type": "Children's Advocacy Center",
      "address": "1410 Leslie Dr, Bloomington, IL 61704",
      "phone": "309-828-9222",
      "website": "https://www.mcleancac.org",
      "lat": 40.5019529,
      "lng": -88.9044868,
      "geocode_ok": true
    },
    {
      "id": "ext:cbo-2026:162",
      "name": "McLean County State's Attorney's Office",
      "program_type": "Prosecution",
      "address": "104 W Front St, Bloomington, IL 61701",
      "phone": "309-888-5400",
      "website": "https://www.mcleancountyil.gov",
      "lat": 40.4776096,
      "lng": -88.9940458,
      "geocode_ok": true
    },
    {
      "id": "ext:cbo-2026:163",
      "name": "Menard County State's Attorney",
      "program_type": "Prosecution",
      "address": "102 S 7th St, Petersburg, IL 62675",
      "phone": "217-632-4030",
      "website": null,
      "lat": 40.0110477,
      "lng": -89.8494656,
      "geocode_ok": true
    },
    {
      "id": "ext:cbo-2026:164",
      "name": "Mercer County Family Crisis Center",
      "program_type": "Domestic Violence",
      "address": "110 SE 3rd St, Aledo, IL 61231",
      "phone": "309-582-7233",
      "website": null,
      "lat": 41.1998318,
      "lng": -90.7490059,
      "geocode_ok": true
    },
    {
      "id": "ext:cbo-2026:165",
      "name": "Mercer County Family Crisis Center – Children's Advocacy Center",
      "program_type": "Children's Advocacy Center",
      "address": "110 SE 3rd St, Aledo, IL 61231",
      "phone": "309-582-7233",
      "website": null,
      "lat": 41.1998318,
      "lng": -90.7490059,
      "geocode_ok": true
    },
    {
      "id": "ext:cbo-2026:166",
      "name": "Mercer County State's Attorney",
      "program_type": "Prosecution",
      "address": "100 SE 3rd St, Aledo, IL 61231",
      "phone": "309-582-5321",
      "website": null,
      "lat": 41.1995144,
      "lng": -90.7486588,
      "geocode_ok": true
    },
    {
      "id": "ext:cbo-2026:167",
      "name": "Metropolitan Family Services",
      "program_type": "Domestic Violence",
      "address": "1 N Dearborn St, Suite 1000, Chicago, IL 60602",
      "phone": "312-986-4000",
      "website": "https://www.metrofamily.org",
      "lat": null,
      "lng": null,
      "geocode_ok": false
    },
    {
      "id": "ext:cbo-2026:168",
      "name": "Metropolitan Family Services",
      "program_type": "Domestic Violence",
      "address": "1 N Dearborn St, Suite 1000, Chicago, IL 60602",
      "phone": "312-986-4000",
      "website": "https://www.metrofamily.org",
      "lat": null,
      "lng": null,
      "geocode_ok": false
    },
    {
      "id": "ext:cbo-2026:169",
      "name": "Metropolitan Family Services",
      "program_type": "Domestic Violence",
      "address": "1 N Dearborn St, Suite 1000, Chicago, IL 60602",
      "phone": "312-986-4000",
      "website": "https://www.metrofamily.org",
      "lat": null,
      "lng": null,
      "geocode_ok": false
    },
    {
      "id": "ext:cbo-2026:170",
      "name": "Metropolitan Family Services DuPage",
      "program_type": "Domestic Violence",
      "address": "222 E Willow Ave, Wheaton, IL 60187",
      "phone": "630-784-4800",
      "website": "https://www.metrofamily.org",
      "lat": 41.8630154,
      "lng": -88.1038959,
      "geocode_ok": true
    },
    {
      "id": "ext:cbo-2026:171",
      "name": "Mid Central Community Action",
      "program_type": "Domestic Violence",
      "address": "1301 W Washington St, Bloomington, IL 61701",
      "phone": "309-829-0691",
      "website": null,
      "lat": 40.4794677,
      "lng": -89.0130668,
      "geocode_ok": true
    },
    {
      "id": "ext:cbo-2026:172",
      "name": "Morgan County State's Attorney",
      "program_type": "Prosecution",
      "address": "300 W State St, Jacksonville, IL 62650",
      "phone": "217-243-0927",
      "website": null,
      "lat": 39.734382,
      "lng": -90.23245,
      "geocode_ok": true
    },
    {
      "id": "ext:cbo-2026:173",
      "name": "Mothers Against Drunk Driving",
      "program_type": "DUI",
      "address": "111 E Wacker Dr, Suite 200, Chicago, IL 60601",
      "phone": "312-368-8610",
      "website": "https://www.madd.org",
      "lat": null,
      "lng": null,
      "geocode_ok": false
    },
    {
      "id": "ext:cbo-2026:174",
      "name": "Moultrie County State's Attorney's Office",
      "program_type": "Prosecution",
      "address": "10 S Main St, Sullivan, IL 61951",
      "phone": "217-728-4386",
      "website": null,
      "lat": 39.5991894,
      "lng": -88.6073759,
      "geocode_ok": true
    },
    {
      "id": "ext:cbo-2026:175",
      "name": "Mujeres Latinas en Accion",
      "program_type": "Domestic Violence",
      "address": "2124 W 21st Pl, Chicago, IL 60608",
      "phone": "773-890-7676",
      "website": "https://mujereslatinasenaccion.org",
      "lat": 41.8533112,
      "lng": -87.6794173,
      "geocode_ok": true
    },
    {
      "id": "ext:cbo-2026:176",
      "name": "Mujeres Latinas en Accion",
      "program_type": "Sexual Assault",
      "address": "2124 W 21st Pl, Chicago, IL 60608",
      "phone": "773-890-7676",
      "website": "https://mujereslatinasenaccion.org",
      "lat": 41.8533112,
      "lng": -87.6794173,
      "geocode_ok": true
    },
    {
      "id": "ext:cbo-2026:177",
      "name": "Mutual Ground, Inc.",
      "program_type": "Sexual Assault",
      "address": "418 Oak Ave, Aurora, IL 60506",
      "phone": "630-897-0084",
      "website": "https://www.mutualground.org",
      "lat": 41.7649521,
      "lng": -88.3168957,
      "geocode_ok": true
    },
    {
      "id": "ext:cbo-2026:178",
      "name": "Mutual Ground, Inc.",
      "program_type": "Domestic Violence",
      "address": "418 Oak Ave, Aurora, IL 60506",
      "phone": "630-897-0084",
      "website": "https://www.mutualground.org",
      "lat": 41.7649521,
      "lng": -88.3168957,
      "geocode_ok": true
    },
    {
      "id": "ext:cbo-2026:179",
      "name": "Illinois Youth and Family Services (dba National Center for Economics)",
      "program_type": "Violence Prevention",
      "address": "1915 W Cermak Rd, Chicago, IL 60608",
      "phone": "773-523-7600",
      "website": null,
      "lat": 41.8521223,
      "lng": -87.6738567,
      "geocode_ok": true
    },
    {
      "id": "ext:cbo-2026:180",
      "name": "Neopolitan Lighthouse",
      "program_type": "Domestic Violence",
      "address": "1665 N Leclaire Ave, Chicago, IL 60639",
      "phone": "773-261-4600",
      "website": null,
      "lat": 41.910918,
      "lng": -87.7525845,
      "geocode_ok": true
    },
    {
      "id": "ext:cbo-2026:181",
      "name": "North Suburban Legal Aid Clinic",
      "program_type": "Legal Services",
      "address": "350 Pfingsten Rd, Suite 112, Northbrook, IL 60062",
      "phone": "847-737-4042",
      "website": "https://www.nslegalaid.org",
      "lat": null,
      "lng": null,
      "geocode_ok": false
    },
    {
      "id": "ext:cbo-2026:182",
      "name": "Northwest Center Against Sexual Assault",
      "program_type": "Sexual Assault",
      "address": "1700 E Golf Rd, Suite 1010, Schaumburg, IL 60173",
      "phone": "847-806-6526",
      "website": "https://www.nwcasa.org",
      "lat": null,
      "lng": null,
      "geocode_ok": false
    },
    {
      "id": "ext:cbo-2026:183",
      "name": "Oasis Women's Center",
      "program_type": "Domestic Violence",
      "address": "301 N 36th St, East St Louis, IL 62205",
      "phone": "618-397-0975",
      "website": null,
      "lat": 38.6091255,
      "lng": -90.1174395,
      "geocode_ok": true
    },
    {
      "id": "ext:cbo-2026:184",
      "name": "Ogle County State's Attorney's Office",
      "program_type": "Prosecution",
      "address": "106 S 5th St, Oregon, IL 61061",
      "phone": "815-732-1130",
      "website": null,
      "lat": 42.0144239,
      "lng": -89.333907,
      "geocode_ok": true
    },
    {
      "id": "ext:cbo-2026:185",
      "name": "Parents Against Gangs",
      "program_type": "Homicide Survivor",
      "address": "830 N Larkin Ave, Joliet, IL 60435",
      "phone": "815-730-4400",
      "website": null,
      "lat": 41.5379396,
      "lng": -88.1251514,
      "geocode_ok": true
    },
    {
      "id": "ext:cbo-2026:186",
      "name": "Pathlights Human Services",
      "program_type": "Elder Abuse",
      "address": "4500 W Touhy Ave, Skokie, IL 60076",
      "phone": "847-679-8191",
      "website": "https://www.pathlights.org",
      "lat": 42.0117617,
      "lng": -87.7241319,
      "geocode_ok": true
    },
    {
      "id": "ext:cbo-2026:187",
      "name": "Peoria County Children's Advocacy Center",
      "program_type": "Children's Advocacy Center",
      "address": "2710 W Richwoods Blvd, Peoria, IL 61604",
      "phone": "309-671-3215",
      "website": null,
      "lat": 40.7290051,
      "lng": -89.6355286,
      "geocode_ok": true
    },
    {
      "id": "ext:cbo-2026:188",
      "name": "Peoria County Sheriff's Office",
      "program_type": "Police Based",
      "address": "301 N Maxwell Rd, Peoria, IL 61604",
      "phone": "309-697-8515",
      "website": "https://www.peoriacounty.gov",
      "lat": 40.690703,
      "lng": -89.693991,
      "geocode_ok": true
    },
    {
      "id": "ext:cbo-2026:189",
      "name": "Peoria County State's Attorney's Office",
      "program_type": "Prosecution",
      "address": "324 Main St, Peoria, IL 61602",
      "phone": "309-672-6900",
      "website": "https://www.peoriacounty.gov",
      "lat": 40.6928235,
      "lng": -89.5899749,
      "geocode_ok": true
    },
    {
      "id": "ext:cbo-2026:190",
      "name": "Perry County Sheriff's Office",
      "program_type": "Police Based",
      "address": "104 S Walnut St, Pinckneyville, IL 62274",
      "phone": "618-357-5212",
      "website": "https://perrycountyil.gov",
      "lat": 38.0793336,
      "lng": -89.3828406,
      "geocode_ok": true
    },
    {
      "id": "ext:cbo-2026:191",
      "name": "Perry-Jackson Child Advocacy Center",
      "program_type": "Children's Advocacy Center",
      "address": "1400 S Washington St, Du Quoin, IL 62832",
      "phone": "618-542-2800",
      "website": null,
      "lat": 38.0107725,
      "lng": -89.2362879,
      "geocode_ok": true
    },
    {
      "id": "ext:cbo-2026:192",
      "name": "Piatt County State's Attorney",
      "program_type": "Prosecution",
      "address": "101 W Washington St, Monticello, IL 61856",
      "phone": "217-762-9487",
      "website": null,
      "lat": 40.025313,
      "lng": -88.57208,
      "geocode_ok": true
    },
    {
      "id": "ext:cbo-2026:193",
      "name": "Pike County State's Attorney",
      "program_type": "Prosecution",
      "address": "100 E Washington St, Pittsfield, IL 62363",
      "phone": "217-285-2971",
      "website": null,
      "lat": 39.6073483,
      "lng": -90.8053537,
      "geocode_ok": true
    },
    {
      "id": "ext:cbo-2026:194",
      "name": "Pillars Community Health",
      "program_type": "Domestic Violence and Sexual Assault",
      "address": "6918 Windsor Ave, Berwyn, IL 60402",
      "phone": "708-745-5277",
      "website": "https://www.pillarscommunityhealth.org",
      "lat": 41.8324098,
      "lng": -87.7960954,
      "geocode_ok": true
    },
    {
      "id": "ext:cbo-2026:195",
      "name": "Polish American Association",
      "program_type": "Domestic Violence",
      "address": "3834 N Cicero Ave, Chicago, IL 60641",
      "phone": "773-282-8206",
      "website": "https://www.polish.org",
      "lat": 41.9508219,
      "lng": -87.7474711,
      "geocode_ok": true
    },
    {
      "id": "ext:cbo-2026:196",
      "name": "Pope County State's Attorney Office",
      "program_type": "Prosecution",
      "address": "310 E Main St, Golconda, IL 62938",
      "phone": "618-683-6231",
      "website": null,
      "lat": 37.3672948,
      "lng": -88.4858034,
      "geocode_ok": true
    },
    {
      "id": "ext:cbo-2026:197",
      "name": "Potter's House of Peoria",
      "program_type": "Violence Prevention",
      "address": "2919 W Malone St, Peoria, IL 61605",
      "phone": "309-966-0086",
      "website": null,
      "lat": 40.6751577,
      "lng": -89.6387472,
      "geocode_ok": true
    },
    {
      "id": "ext:cbo-2026:198",
      "name": "Prairie Center Against Sexual Assault",
      "program_type": "Sexual Assault",
      "address": "3 W Old State Capitol Plaza, Springfield, IL 62701",
      "phone": "217-744-2560",
      "website": "https://www.pcasa.org",
      "lat": 39.8017186,
      "lng": -89.6485582,
      "geocode_ok": true
    },
    {
      "id": "ext:cbo-2026:199",
      "name": "Prairie State Legal Services",
      "program_type": "Legal Services",
      "address": "303 N Main St, Suite 600, Rockford, IL 61101",
      "phone": "815-965-2134",
      "website": "https://www.pslegal.org",
      "lat": null,
      "lng": null,
      "geocode_ok": false
    },
    {
      "id": "ext:cbo-2026:200",
      "name": "Pulaski County State's Attorney's Office",
      "program_type": "Prosecution",
      "address": "500 Illinois Ave, Mound City, IL 62963",
      "phone": "618-748-9300",
      "website": null,
      "lat": 37.089036,
      "lng": -89.162271,
      "geocode_ok": true
    },
    {
      "id": "ext:cbo-2026:201",
      "name": "Quincy Area Network Against Domestic Abuse, Inc.",
      "program_type": "Domestic Violence and Sexual Assault",
      "address": "1528 Broadway St, Quincy, IL 62301",
      "phone": "217-222-0069",
      "website": "https://www.quanada.org",
      "lat": 39.9356852,
      "lng": -91.3915091,
      "geocode_ok": true
    },
    {
      "id": "ext:cbo-2026:202",
      "name": "Randolph County State's Attorney",
      "program_type": "Prosecution",
      "address": "1 Taylor St, Chester, IL 62233",
      "phone": "618-826-5071",
      "website": null,
      "lat": 37.90871,
      "lng": -89.831524,
      "geocode_ok": true
    },
    {
      "id": "ext:cbo-2026:203",
      "name": "Rape Advocacy, Counseling & Education Services",
      "program_type": "Sexual Assault",
      "address": "145A Lincoln Square, Urbana, IL 61801",
      "phone": "217-344-6298",
      "website": "https://www.rapecrisisservices.org",
      "lat": null,
      "lng": null,
      "geocode_ok": false
    },
    {
      "id": "ext:cbo-2026:204",
      "name": "Remedies Renewing Lives",
      "program_type": "Domestic Violence",
      "address": "625 N Court St, Rockford, IL 61103",
      "phone": "815-962-0871",
      "website": "https://www.remediesrenewinglives.org",
      "lat": 42.277647,
      "lng": -89.092892,
      "geocode_ok": true
    },
    {
      "id": "ext:cbo-2026:205",
      "name": "Resilience",
      "program_type": "Sexual Assault",
      "address": "180 N Michigan Ave, Suite 600, Chicago, IL 60601",
      "phone": "312-443-9603",
      "website": "https://www.ourresilience.org",
      "lat": null,
      "lng": null,
      "geocode_ok": false
    },
    {
      "id": "ext:cbo-2026:206",
      "name": "Riverview Center",
      "program_type": "Domestic Violence",
      "address": "4626 Progress Dr, Davenport, IA 52807",
      "phone": "563-326-9191",
      "website": "https://www.riverviewcenter.org",
      "lat": 41.5695414,
      "lng": -90.5184932,
      "geocode_ok": true
    },
    {
      "id": "ext:cbo-2026:207",
      "name": "Riverview Center",
      "program_type": "Sexual Assault",
      "address": "4626 Progress Dr, Davenport, IA 52807",
      "phone": "563-326-9191",
      "website": "https://www.riverviewcenter.org",
      "lat": 41.5695414,
      "lng": -90.5184932,
      "geocode_ok": true
    },
    {
      "id": "ext:cbo-2026:208",
      "name": "Rock Island County State's Attorney's Office",
      "program_type": "Prosecution",
      "address": "210 15th St, Rock Island, IL 61201",
      "phone": "309-558-3505",
      "website": null,
      "lat": 41.510093,
      "lng": -90.5792316,
      "geocode_ok": true
    },
    {
      "id": "ext:cbo-2026:209",
      "name": "Rockford Sexual Assault Counseling",
      "program_type": "Sexual Assault",
      "address": "4990 E State St, Rockford, IL 61108",
      "phone": "815-636-9811",
      "website": null,
      "lat": 42.2640141,
      "lng": -89.0184464,
      "geocode_ok": true
    },
    {
      "id": "ext:cbo-2026:210",
      "name": "Rockford Sexual Assault Counseling",
      "program_type": "Sexual Assault",
      "address": "4990 E State St, Rockford, IL 61108",
      "phone": "815-636-9811",
      "website": null,
      "lat": 42.2640141,
      "lng": -89.0184464,
      "geocode_ok": true
    },
    {
      "id": "ext:cbo-2026:211",
      "name": "Safe Harbor Family Crisis Center",
      "program_type": "Domestic Violence",
      "address": "1515 N Seminary St, Galesburg, IL 61401",
      "phone": "309-343-7233",
      "website": null,
      "lat": 40.9660906,
      "lng": -90.3642047,
      "geocode_ok": true
    },
    {
      "id": "ext:cbo-2026:212",
      "name": "Safe Journeys",
      "program_type": "Domestic Violence",
      "address": "1015 W Main St, Ottawa, IL 61350",
      "phone": "815-434-3011",
      "website": "https://www.safejourneysillinois.org",
      "lat": 41.3456066,
      "lng": -88.8545381,
      "geocode_ok": true
    },
    {
      "id": "ext:cbo-2026:213",
      "name": "Safe Passage",
      "program_type": "Sexual Assault",
      "address": "217 Franklin St, DeKalb, IL 60115",
      "phone": "815-756-5228",
      "website": "https://www.safepassagedv.org",
      "lat": 41.9282853,
      "lng": -88.7534411,
      "geocode_ok": true
    },
    {
      "id": "ext:cbo-2026:214",
      "name": "Safe Passage",
      "program_type": "Domestic Violence",
      "address": "217 Franklin St, DeKalb, IL 60115",
      "phone": "815-756-5228",
      "website": "https://www.safepassagedv.org",
      "lat": 41.9282853,
      "lng": -88.7534411,
      "geocode_ok": true
    },
    {
      "id": "ext:cbo-2026:215",
      "name": "Saline County State's Attorney Office",
      "program_type": "Prosecution",
      "address": "10 E Poplar St, Harrisburg, IL 62946",
      "phone": "618-253-8631",
      "website": null,
      "lat": 37.7384498,
      "lng": -88.540097,
      "geocode_ok": true
    },
    {
      "id": "ext:cbo-2026:216",
      "name": "Sangamon County Child Advocacy Center",
      "program_type": "Children's Advocacy Center",
      "address": "400 W Monroe St, Springfield, IL 62704",
      "phone": "217-753-2800",
      "website": null,
      "lat": 39.799295,
      "lng": -89.6590606,
      "geocode_ok": true
    },
    {
      "id": "ext:cbo-2026:217",
      "name": "Sangamon County Child Advocacy Center",
      "program_type": "Children's Advocacy Center",
      "address": "400 W Monroe St, Springfield, IL 62704",
      "phone": "217-753-2800",
      "website": null,
      "lat": 39.799295,
      "lng": -89.6590606,
      "geocode_ok": true
    },
    {
      "id": "ext:cbo-2026:218",
      "name": "Sangamon County State's Attorney's Office",
      "program_type": "Prosecution",
      "address": "200 S 9th St, Springfield, IL 62701",
      "phone": "217-753-6699",
      "website": "https://www.sangamonil.gov",
      "lat": 39.800372,
      "lng": -89.643508,
      "geocode_ok": true
    },
    {
      "id": "ext:cbo-2026:219",
      "name": "Sarah's Inn",
      "program_type": "Domestic Violence",
      "address": "111 S Oak Park Ave, Oak Park, IL 60302",
      "phone": "708-386-4225",
      "website": "https://www.sarahsinn.org",
      "lat": 41.886707,
      "lng": -87.7945677,
      "geocode_ok": true
    },
    {
      "id": "ext:cbo-2026:220",
      "name": "Schwab Rehabilitation Hospital",
      "program_type": "Domestic Violence",
      "address": "1401 S California Ave, Chicago, IL 60608",
      "phone": "773-522-2010",
      "website": "https://www.schwabrehab.org",
      "lat": 41.8622623,
      "lng": -87.6951383,
      "geocode_ok": true
    },
    {
      "id": "ext:cbo-2026:221",
      "name": "Scott County State's Attorney",
      "program_type": "Prosecution",
      "address": "35 E Market St, Winchester, IL 62694",
      "phone": "217-742-3176",
      "website": null,
      "lat": 39.6286414,
      "lng": -90.4560271,
      "geocode_ok": true
    },
    {
      "id": "ext:cbo-2026:222",
      "name": "Sexual Assault and Family Emergencies (SAFE)",
      "program_type": "Sexual Assault",
      "address": "110 W Gallatin St, Vandalia, IL 62471",
      "phone": "618-283-1414",
      "website": null,
      "lat": 38.9612593,
      "lng": -89.0895053,
      "geocode_ok": true
    },
    {
      "id": "ext:cbo-2026:223",
      "name": "Sexual Assault Counseling and Information Services",
      "program_type": "Sexual Assault",
      "address": "1200 N 6th St, Charleston, IL 61920",
      "phone": "217-348-5033",
      "website": null,
      "lat": 39.4971079,
      "lng": -88.1759887,
      "geocode_ok": true
    }
  ]
}